City_ID,City,Lat,Lng,Max Temp,Humidity,Cloudiness,Wind Speed,Country,Date
0,chemin grenier,-20.4872,57.4656,74.79,87,36,7.87,MU,1732491771
1,blackmans bay,-43.0167,147.3167,57.33,94,94,6.02,AU,1732491771
2,mersin,36.862,34.6509,43.52,45,2,8.08,TR,1732491488
3,albany,42.6001,-73.9662,38.53,66,71,3.0,US,1732491562
4,zeya,53.75,127.2667,12.0,93,100,2.91,RU,1732491567
5,belyy yar,53.6039,91.3903,19.29,93,75,0.0,RU,1732491772
6,bilibino,68.0546,166.4372,-16.4,96,100,2.01,RU,1732491772
7,badger,64.8,-147.5333,20.35,86,0,5.75,US,1732491772
8,simplicio mendes,-7.8539,-41.9103,83.26,52,70,4.38,BR,1732491772
9,ushuaia,-54.8,-68.3,47.86,49,40,11.5,AR,1732491717
10,souillac,-20.5167,57.5167,75.58,88,40,5.75,MU,1732491772
11,west island,-12.1568,96.8225,78.78,94,100,21.85,CC,1732491772
12,edinburgh of the seven seas,-37.0676,-12.3116,53.53,74,94,11.12,SH,1732491772
13,atafu village,-8.5421,-172.5159,83.39,73,21,12.93,TK,1732491773
14,biryusinsk,55.9634,97.8235,13.21,91,100,7.87,RU,1732491773
15,lebu,-37.6167,-73.65,54.95,88,0,2.19,CL,1732491773
16,grytviken,-54.2811,-36.5092,40.23,72,3,11.32,GS,1732491773
17,margaret river,-33.95,115.0667,59.25,72,79,19.84,AU,1732491688
18,talakan,50.3167,130.3667,16.59,81,100,4.34,RU,1732491773
19,brisas de zicatela,15.8369,-97.0419,82.92,78,0,4.61,MX,1732491773
20,yerofey pavlovich,53.9667,121.9667,10.9,95,100,1.88,RU,1732491773
21,anchorage,61.2181,-149.9003,33.91,89,40,1.99,US,1732491773
22,kruisfontein,-34.0033,24.7314,67.57,95,62,0.45,ZA,1732491773
23,port elizabeth,-33.918,25.5701,70.09,99,75,10.36,ZA,1732491773
24,waitangi,-43.9535,-176.5597,55.98,94,74,23.62,NZ,1732491773
25,tiksi,71.6872,128.8694,-8.37,91,81,13.91,RU,1732491774
26,port alfred,-33.5906,26.891,70.18,98,15,4.0,ZA,1732491774
27,salinopolis,-0.6136,-47.3561,80.6,81,52,11.77,BR,1732491508
28,saipan,15.1355,145.701,84.65,81,40,16.11,MP,1732491774
29,tambura,5.6,27.4667,72.61,49,18,3.56,SS,1732491774
30,adamstown,-25.066,-130.1015,72.16,66,44,15.82,PN,1732491774
31,papatowai,-46.5619,169.4708,64.45,51,69,12.88,NZ,1732491774
32,raja,8.4596,25.678,71.55,20,8,4.23,SS,1732491774
33,ilulissat,69.2167,-51.1,30.22,93,100,14.97,GL,1732491774
34,antonio enes,-16.2325,39.9086,77.86,87,100,2.91,MZ,1732491774
35,nemuro,43.3236,145.575,39.18,70,60,21.32,JP,1732491774
36,yellowknife,62.456,-114.3525,15.42,93,100,6.91,CA,1732491775
37,codrington,-38.2667,141.9667,66.51,72,100,8.59,AU,1732491775
38,santa elena de uairen,4.6167,-61.1333,69.37,84,53,2.89,VE,1732491775
39,khanty-mansiysk,61.0042,69.0019,30.31,59,0,15.66,RU,1732491487
40,alghero,40.5589,8.3181,48.29,81,0,3.44,IT,1732491775
41,kralendijk,12.15,-68.2667,84.18,79,20,17.27,BQ,1732491775
42,port-aux-francais,-49.35,70.2167,39.29,79,90,27.83,TF,1732491775
43,lata,40.1629,-8.3327,61.7,92,100,15.52,PT,1732491775
44,vorgashor,67.5833,63.95,24.17,93,100,18.12,RU,1732491775
45,arraial do cabo,-22.9661,-42.0278,71.02,77,3,14.25,BR,1732491775
46,luau,-10.7073,22.2247,64.6,96,100,3.6,AO,1732491523
47,hithadhoo,-0.6,73.0833,82.56,75,92,15.28,MV,1732491775
48,puerto natales,-51.7236,-72.4875,46.69,73,95,1.9,CL,1732491775
49,bonthe,7.5264,-12.505,80.15,83,2,4.68,SL,1732491776
50,mount pearl,47.5166,-52.7813,43.45,98,75,21.85,CA,1732491776
51,nianzishan,47.5167,122.8833,23.88,68,100,4.59,CN,1732491776
52,olyokminsk,60.3736,120.4264,-0.35,97,100,3.4,RU,1732491776
53,saudarkrokur,65.7461,-19.6394,25.47,67,87,9.46,IS,1732491776
54,merizo village,13.2658,144.6691,86.58,87,71,19.01,GU,1732491776
55,minas de marcona,-15.2119,-75.1103,58.86,80,58,12.48,PE,1732491776
56,jianguang,28.1938,115.7836,57.94,81,79,1.97,CN,1732491776
57,sitka,57.0531,-135.33,39.09,35,0,0.0,US,1732491776
58,nar'yan-mar,67.6713,53.087,27.05,90,94,25.7,RU,1732491776
59,gargalianoi,37.0667,21.6333,48.15,45,0,2.75,GR,1732491777
60,talara,-4.5772,-81.2719,67.28,88,88,13.35,PE,1732491777
61,saint lucia,-27.5,153.0,82.0,57,29,5.99,AU,1732491777
62,wailua homesteads,22.0669,-159.378,78.13,79,16,1.01,US,1732491777
63,lubang,13.8584,120.124,81.21,80,21,27.09,PH,1732491777
64,port mathurin,-19.6833,63.4167,76.23,73,20,16.75,MU,1732491777
65,roma,43.2128,-75.4557,39.34,88,100,10.36,US,1732491675
66,martapura,-3.4167,114.85,77.09,100,40,2.3,ID,1732491777
67,thompson,55.7435,-97.8558,5.16,92,100,12.66,CA,1732491777
68,tahla,34.0485,-4.428,65.46,37,85,3.98,MA,1732491777
69,dolinsk,47.35,142.8,30.7,69,41,7.76,RU,1732491778
70,sabang,5.8933,95.3214,80.98,81,100,11.03,ID,1732491778
71,cidreira,-30.1811,-50.2056,69.78,77,0,27.09,BR,1732491778
72,kone,-21.0595,164.8658,81.99,68,98,5.7,NC,1732491778
73,lihue,21.9789,-159.3672,78.75,79,17,2.15,US,1732491778
74,duekoue,6.7472,-7.3496,71.13,63,10,1.68,CI,1732491778
75,pangody,65.85,74.4859,33.96,95,100,21.09,RU,1732491778
76,sortavala,61.7053,30.6918,34.93,80,90,17.47,RU,1732491778
77,iqaluit,63.7506,-68.5145,28.13,86,100,10.36,CA,1732491778
78,gadzhiyevo,69.2551,33.3362,24.84,87,51,13.6,RU,1732491778
79,sandnessjoen,66.0217,12.6316,35.55,84,100,19.22,NO,1732491778
80,buka,40.8108,69.1986,43.61,35,35,3.31,UZ,1732491779
81,yantzaza,-3.8278,-78.7594,69.17,98,41,1.43,EC,1732491779
82,mangrol,21.1167,70.1167,72.86,54,10,8.77,IN,1732491779
83,kodiak,57.79,-152.4072,35.11,80,40,0.0,US,1732491779
84,hermanus,-34.4187,19.2345,65.8,89,100,3.24,ZA,1732491779
85,antalaha,-14.9003,50.2788,75.81,86,57,3.76,MG,1732491779
86,bethel,41.3712,-73.414,45.01,58,39,5.99,US,1732491779
87,island harbour,50.724,-1.2758,52.99,70,100,5.01,GB,1732491779
88,yoloten,37.2989,62.3597,53.91,57,17,8.37,TM,1732491779
89,olonkinbyen,70.9221,-8.7187,24.12,58,5,12.55,SJ,1732491779
90,ribeira grande,38.5167,-28.7,58.77,79,98,4.0,PT,1732491779
91,eirunepe,-6.6603,-69.8736,76.33,93,78,3.22,BR,1732491780
92,qaqortoq,60.7167,-46.0333,11.08,69,2,3.67,GL,1732491780
93,whitehorse,60.7161,-135.0538,3.02,84,40,19.57,CA,1732491780
94,margate,51.3813,1.3862,61.88,70,98,3.0,GB,1732491780
95,wuwei,37.9281,102.6414,14.09,58,72,6.76,CN,1732491780
96,kununurra,-15.7667,128.7333,87.78,70,86,0.0,AU,1732491780
97,remire-montjoly,4.9167,-52.2667,78.84,94,75,0.0,GF,1732491780
98,mala vyska,48.6431,31.6366,27.7,84,7,5.79,UA,1732491780
99,timbuktu,16.7735,-3.0074,76.53,15,0,10.38,ML,1732491780
100,trujillo,-8.116,-79.03,64.36,82,20,11.5,PE,1732491606
101,cheney,47.4874,-117.5758,38.28,96,100,5.75,US,1732491780
102,anadyr,64.75,177.4833,16.3,85,20,11.18,RU,1732491781
103,henderson,36.0397,-114.9819,66.22,28,0,11.5,US,1732491651
104,longyearbyen,78.2186,15.6401,19.24,68,40,10.36,SJ,1732491781
105,hailar,49.2,119.7,16.74,94,100,4.34,CN,1732491781
106,lagoa,39.05,-27.9833,60.4,53,86,5.99,PT,1732491781
107,kingston,17.997,-76.7936,77.95,89,100,10.36,JM,1732491702
108,avarua,-21.2078,-159.775,80.65,74,75,10.36,CK,1732491781
109,acapulco de juarez,16.8634,-99.8901,84.02,74,75,8.05,MX,1732491781
110,kristiansund,63.1115,7.732,41.65,65,74,3.44,NO,1732491781
111,gunsan,35.9786,126.7114,40.89,81,75,3.44,KR,1732491782
112,cabo san lucas,22.8909,-109.9124,86.31,30,0,14.97,MX,1732491782
113,labrador city,52.9463,-66.9114,31.17,95,100,11.99,CA,1732491782
114,warmbad,-28.45,18.7333,69.93,39,22,9.57,,1732491782
115,rio grande,-32.035,-52.0986,69.22,82,0,22.01,BR,1732491782
116,ardakan,32.31,54.0175,54.88,31,45,1.36,IR,1732491782
117,vilyuchinsk,52.9306,158.4028,32.27,86,99,8.39,RU,1732491782
118,poltavka,54.3663,71.7632,11.3,93,65,3.11,RU,1732491782
119,inirida,3.8653,-67.9239,81.3,74,74,3.53,CO,1732491782
120,ancud,-41.8697,-73.8203,53.4,87,32,14.23,CL,1732491782
121,yanchep,-31.55,115.6833,66.29,64,17,17.87,AU,1732491783
122,jamestown,42.097,-79.2353,40.01,92,100,10.36,US,1732491613
123,makueni boma,-1.8041,37.6203,63.77,95,100,1.99,KE,1732491633
124,bredasdorp,-34.5322,20.0403,64.72,84,100,2.13,ZA,1732491783
125,chonchi,-42.6128,-73.8092,56.12,81,60,5.39,CL,1732491783
126,holualoa,19.6228,-155.9522,75.83,74,100,8.05,US,1732491783
127,fort bragg,35.139,-79.006,56.75,75,0,0.0,US,1732491783
128,hawaiian paradise park,19.5933,-154.9731,75.87,86,100,5.75,US,1732491783
129,carnarvon,-24.8667,113.6333,71.8,78,83,20.56,AU,1732491506
130,fort st. john,56.2499,-120.8529,-0.51,78,20,3.44,CA,1732491783
131,adler,43.43,39.92,44.76,93,100,4.47,RU,1732491783
132,puerto ayora,-0.7393,-90.3518,73.54,80,19,5.99,EC,1732491783
133,klyuchi,52.2667,79.1667,11.12,96,24,1.41,RU,1732491784
134,katsuura,35.1333,140.3,55.08,64,11,18.1,JP,1732491784
135,tazovsky,67.4667,78.7,33.39,98,100,17.05,RU,1732491784
136,isangel,-19.55,169.2667,80.71,78,75,23.02,VU,1732491784
137,shakawe,-18.3667,21.85,67.06,85,9,4.34,BW,1732491784
138,ta`u,-14.2336,-169.5144,81.25,74,57,7.16,AS,1732491784
139,fortuna,40.5982,-124.1573,53.35,94,75,19.57,US,1732491784
140,lazaro cardenas,17.9583,-102.2,80.69,78,4,6.62,MX,1732491784
141,coahuayana de hidalgo,18.7,-103.6583,78.64,78,27,3.22,MX,1732491784
142,faya-largeau,17.9257,19.1043,70.05,24,0,19.82,TD,1732491784
143,shanhecun,44.7,127.2,35.58,76,100,8.97,CN,1732491784
144,gattinara,45.6179,8.3674,44.65,70,100,2.01,IT,1732491785
145,ullal,12.8,74.85,74.35,88,96,3.44,IN,1732491785
146,tura,25.5198,90.2201,59.13,90,17,4.09,IN,1732491785
147,selfoss,63.9331,-20.9971,19.13,81,3,9.53,IS,1732491785
148,kachug,53.9606,105.8817,0.82,93,91,0.76,RU,1732491785
149,las tablas,7.7667,-80.2833,78.17,99,76,5.68,PA,1732491785
150,umba,66.6871,34.3429,29.53,86,70,14.83,RU,1732491785
151,udachny,66.4167,112.4,-22.67,94,28,8.63,RU,1732491785
152,aasiaat,68.7098,-52.8699,23.16,88,100,13.22,GL,1732491785
153,yanykurgan,43.915,67.2481,35.55,43,0,5.48,KZ,1732491785
154,neelankarai,12.9455,80.2575,77.11,89,40,4.61,IN,1732491785
155,tazacorte,28.629,-17.9293,68.97,88,40,8.99,ES,1732491785
156,new norfolk,-42.7826,147.0587,56.91,47,91,3.33,AU,1732491786
157,dunedin,-45.8742,170.5036,59.81,79,18,4.0,NZ,1732491640
158,pisco,-13.7,-76.2167,69.85,78,0,14.97,PE,1732491786
159,kindu,-2.95,25.95,69.04,99,96,1.39,CD,1732491786
160,dellys,36.9172,3.9131,59.52,58,0,13.02,DZ,1732491786
161,whakatane,-37.9585,176.9854,69.51,68,4,5.99,NZ,1732491786
162,richards bay,-28.783,32.0377,73.94,83,3,11.21,ZA,1732491786
163,utrik,11.2278,169.8474,82.22,81,30,18.01,MH,1732491786
164,champerico,14.3,-91.9167,79.63,75,100,5.1,GT,1732491786
165,sisophon,13.5859,102.9737,74.77,83,99,7.67,KH,1732491786
166,petropavlovsk-kamchatsky,53.0452,158.6483,30.79,59,75,6.71,RU,1732491787
167,akureyri,65.6835,-18.0878,28.33,80,100,12.66,IS,1732491787
168,leer,53.2316,7.461,60.94,74,100,3.0,DE,1732491787
169,pangai,-19.8,-174.35,82.51,74,75,10.36,TO,1732491787
170,st. john's,47.5649,-52.7093,44.28,97,75,21.85,CA,1732491592
171,aykhal,66.0,111.5,-22.23,91,11,10.09,RU,1732491787
172,aral,40.5156,81.2636,30.96,71,8,5.14,CN,1732491787
173,ust-nera,64.5667,143.2,-23.46,96,95,1.97,RU,1732491787
174,nuuk,64.1835,-51.7216,27.21,68,100,1.14,GL,1732491787
175,luderitz,-26.6481,15.1594,59.14,91,7,13.13,,1732491787
176,salalah,17.0151,54.0924,77.09,73,0,3.44,OM,1732491788
177,san patricio,28.017,-97.5169,80.55,63,5,15.64,US,1732491788
178,mahina,-17.5065,-149.489,85.77,70,75,4.61,PF,1732491788
179,fale old settlement,-9.3852,-171.2468,83.64,71,14,14.52,TK,1732491788
180,khushab,32.2967,72.3525,62.71,37,0,2.68,PK,1732491788
181,shahr-e kord,32.3256,50.8644,44.37,61,0,2.3,IR,1732491788
182,igarka,67.4667,86.5833,28.76,96,100,17.43,RU,1732491788
183,sungai raya,0.7,108.9,79.41,88,100,1.9,ID,1732491788
184,khodzha-maston,38.7446,68.627,38.62,42,100,11.14,TJ,1732491789
185,lahat,-3.8,103.5333,75.69,87,53,0.87,ID,1732491789
186,cooper's town,26.8667,-77.5167,72.27,64,8,5.84,BS,1732491789
187,karkkila,60.5342,24.2098,32.0,97,100,15.39,FI,1732491789
188,port blair,11.6667,92.75,82.44,83,40,8.05,IN,1732491789
189,laojunmiao,39.8333,97.7333,12.61,47,36,5.57,CN,1732491789
190,kargasok,59.0556,80.8572,21.07,86,100,8.46,RU,1732491789
191,nadym,65.5333,72.5167,34.84,92,100,23.69,RU,1732491789
192,flin flon,54.7682,-101.865,6.64,85,100,13.8,CA,1732491789
193,sena madureira,-9.0656,-68.6569,73.83,95,95,0.56,BR,1732491790
194,touros,-5.1989,-35.4608,78.49,77,56,13.22,BR,1732491790
195,broome,42.2506,-75.833,41.92,68,100,10.36,US,1732491790
196,port macquarie,-31.4333,152.9167,75.07,70,99,13.0,AU,1732491790
197,colonia,50.9333,6.95,61.12,65,0,14.97,DE,1732491790
198,port shepstone,-30.7414,30.455,74.59,92,73,18.81,ZA,1732491790
199,carutapera,-1.195,-46.02,79.39,80,100,7.31,BR,1732491790
200,daru,-9.0763,143.2092,82.67,80,64,10.8,PG,1732491790
201,doctor juan leon mallorquin,-25.4,-55.2667,78.87,57,0,7.11,PY,1732491790
202,east london,-33.0153,27.9116,74.39,88,51,13.04,ZA,1732491790
203,mormugao,15.4,73.8,70.86,73,100,3.44,IN,1732491790
204,kapa'a,22.0752,-159.319,79.48,79,9,1.01,US,1732491790
205,atotonilco el grande,20.2833,-98.6667,58.68,46,0,3.2,MX,1732491791
206,mulayjah,27.271,48.4242,69.48,46,90,8.84,SA,1732491791
207,san andres,12.5847,-81.7006,80.62,89,40,10.36,CO,1732491791
208,koryazhma,61.3143,47.1691,28.36,86,100,6.69,RU,1732491791
209,puerto armuelles,8.2833,-82.8667,77.09,90,89,5.01,PA,1732491791
210,barcelos,41.5388,-8.6151,55.99,96,100,10.29,PT,1732491791
211,leava,-14.3,-178.1667,81.28,80,92,9.95,WF,1732491791
212,kolonia,50.9333,6.95,61.12,65,0,14.97,DE,1732491533
213,gua musang,4.8823,101.9644,74.05,99,100,0.85,MY,1732491791
214,la'ie,21.6477,-157.9253,84.16,65,0,5.01,US,1732491791
215,san pedro pochutla,15.7333,-96.4667,83.91,83,14,2.64,MX,1732491791
216,nikolayevsk-on-amure,53.1406,140.73,10.08,90,80,4.34,RU,1732491792
217,chirilagua,13.2203,-88.1386,71.55,83,2,2.59,SV,1732491792
218,turpan,42.9333,89.1667,34.29,39,99,1.79,CN,1732491792
219,kananga,-5.8958,22.4178,66.22,97,34,0.69,CD,1732491792
220,taguatinga,-12.3857,-46.5711,73.35,90,100,4.41,BR,1732491792
221,alofi,-19.0595,-169.9187,82.29,74,75,13.8,NU,1732491792
222,uturoa,-16.7333,-151.4333,80.29,79,58,12.66,PF,1732491792
223,alindao,5.0267,21.2088,72.43,60,3,0.18,CF,1732491792
224,pacific grove,36.6177,-121.9166,61.41,84,20,15.01,US,1732491793
225,monte alegre,-2.0078,-54.0692,84.43,48,28,2.55,BR,1732491793
226,neiafu,-18.65,-173.9833,83.08,74,75,9.22,TO,1732491793
227,piacabucu,-10.4056,-36.4344,77.27,88,69,8.55,BR,1732491793
228,talnakh,69.4865,88.3972,18.34,95,100,15.59,RU,1732491793
229,newman,37.3138,-121.0208,63.05,55,50,3.0,US,1732491674
230,stanley,54.868,-1.6985,48.22,80,75,14.97,GB,1732491784
231,hamilton,39.1834,-84.5333,52.02,71,0,8.05,US,1732491793
232,georgetown,5.4112,100.3354,80.53,89,20,2.3,MY,1732491725
233,berdychiv,49.8993,28.6024,21.34,92,8,7.14,UA,1732491793
234,pola de laviana,43.2454,-5.5629,60.15,88,69,6.44,ES,1732491793
235,lalganj,25.8667,85.1833,61.12,54,39,3.98,IN,1732491794
236,chos malal,-37.3781,-70.2709,64.9,33,0,16.6,AR,1732491794
237,pont rouge,48.8833,-72.0825,33.93,86,100,16.22,CA,1732491794
238,kiamba,5.9894,124.6242,83.91,72,98,0.65,PH,1732491794
239,puerto baquerizo moreno,-0.9,-89.6,71.67,73,47,11.21,EC,1732491794
240,ostersund,63.1792,14.6357,33.62,93,100,12.66,SE,1732491794
241,ilovlya,49.3033,43.9796,40.51,65,100,6.02,RU,1732491794
242,shirgaon,19.7,72.7,71.92,65,81,5.03,IN,1732491794
243,vilyuysk,63.7553,121.6247,-8.97,89,100,5.44,RU,1732491794
244,blenheim,-41.516,173.9528,73.53,55,69,1.01,NZ,1732491794
245,shalqar,47.8333,59.6,32.63,56,0,12.01,KZ,1732491795
246,bojnurd,37.4747,57.329,37.35,75,0,2.3,IR,1732491795
247,invercargill,-46.4,168.35,58.01,73,49,17.0,NZ,1732491795
248,la passe,45.5549,-0.8967,60.98,64,93,29.93,FR,1732491795
249,geraldton,-28.7667,114.6,70.21,73,100,25.23,AU,1732491795
250,kangding,30.0513,101.9603,32.65,88,99,2.19,CN,1732491795
251,afaahiti,-17.75,-149.2833,77.59,84,57,14.09,PF,1732491795
252,kolonia town,6.964,158.206,87.91,70,75,13.8,FM,1732491795
253,college,64.8569,-147.8028,20.07,83,100,5.75,US,1732491795
254,praia da vitoria,38.7333,-27.0667,59.25,77,20,4.74,PT,1732491795
255,kalmunai,7.4167,81.8167,73.04,97,100,14.58,LK,1732491796
256,mathba,22.2855,89.9629,61.56,70,91,5.97,BD,1732491796
257,kupang,-10.1667,123.5833,86.58,79,20,2.3,ID,1732491796
258,tamandare,-8.7597,-35.1047,77.81,80,6,11.54,BR,1732491796
259,papao,-17.75,-149.55,85.68,82,41,15.52,PF,1732491796
260,peace river,56.2501,-117.286,1.71,85,20,3.44,CA,1732491667
261,ko lanta,7.5336,99.0865,78.46,86,100,19.84,TH,1732491796
262,ulsteinvik,62.3432,5.8487,47.3,77,45,14.67,NO,1732491796
263,nova sintra,14.8667,-24.7167,78.24,78,0,11.27,CV,1732491796
264,uaua,-9.8414,-39.4817,79.11,65,67,14.32,BR,1732491796
265,cuyo,10.8525,121.0086,82.81,80,45,24.85,PH,1732491797
266,ad dabbah,18.05,30.95,66.42,30,1,10.07,SD,1732491797
267,sarbogard,46.8869,18.6204,40.39,90,68,6.96,HU,1732491797
268,hadibu,12.65,54.0333,77.02,78,19,6.96,YE,1732491797
269,howard springs,-12.497,131.047,86.88,75,85,3.67,AU,1732491797
270,la ronge,55.1001,-105.2842,7.05,78,100,12.66,CA,1732491797
271,loukhi,66.0764,33.0381,25.84,88,75,10.63,RU,1732491797
272,isafjordur,66.0755,-23.124,17.15,72,7,3.47,IS,1732491797
273,susuman,62.7833,148.1667,-32.01,96,77,0.89,RU,1732491797
274,atherton,53.5237,-2.4935,51.3,77,100,5.01,GB,1732491797
275,qaisumah,28.3112,46.1273,64.36,59,40,9.22,SA,1732491797
276,dudinka,69.4058,86.1778,27.12,97,100,19.22,RU,1732491798
277,xichang,27.8964,102.2634,49.37,93,90,3.53,CN,1732491798
278,port saint john's,-31.6229,29.5448,74.98,91,40,11.07,ZA,1732491798
279,coquimbo,-29.9533,-71.3436,64.13,69,0,10.36,CL,1732491555
280,alaghsas,17.0187,8.0168,71.78,17,6,12.8,NE,1732491798
281,shiyan,32.6475,110.7781,45.16,60,100,10.2,CN,1732491798
282,kudahuvadhoo,2.6708,72.8944,81.77,74,86,5.26,MV,1732491798
283,mount gambier,-37.8333,140.7667,69.93,65,100,5.95,AU,1732491798
284,cabedelo,-6.9811,-34.8339,81.27,75,23,14.67,BR,1732491798
285,preveza,38.95,20.75,45.97,76,0,3.44,GR,1732491798
286,siwa oasis,29.2041,25.5195,55.0,53,0,10.94,EG,1732491798
287,elva,58.2225,26.4211,33.22,84,20,18.41,EE,1732491798
288,kapuskasing,49.4169,-82.4331,23.09,100,100,4.61,CA,1732491662
289,mont-laurier,46.5501,-75.4993,29.75,71,92,11.36,CA,1732491770
290,dzhangala,49.2167,50.3333,31.48,73,6,10.98,KZ,1732491799
291,calingasta,-31.3308,-69.4078,79.86,46,6,12.91,AR,1732491799
292,barranca,-10.75,-77.7667,67.68,79,76,7.63,PE,1732491799
293,ouro preto do oeste,-10.7481,-62.2158,72.82,90,35,3.22,BR,1732491573
294,tarakan,3.3,117.6333,78.3,94,75,3.44,ID,1732491799
295,taltal,-25.4,-70.4833,63.75,81,34,3.89,CL,1732491620
296,senanga,-16.1167,23.2667,69.64,82,100,2.39,ZM,1732491799
297,zhenzhou,32.2692,119.1789,52.9,92,100,6.35,CN,1732491800
298,labuan,5.2767,115.2417,79.16,94,20,2.3,MY,1732491800
299,juneau,58.3019,-134.4197,25.41,58,40,0.0,US,1732491800
300,galveston,29.3669,-94.9669,76.05,75,0,9.22,US,1732491800
301,constantia,44.1833,28.65,29.08,56,30,5.28,RO,1732491800
302,punta arenas,-53.15,-70.9167,48.31,53,75,9.22,CL,1732491755
303,sarakhs,36.5449,61.1577,55.94,43,1,9.37,IR,1732491800
304,recani,31.2846,-4.2688,61.12,36,77,7.43,MA,1732491800
305,adra,36.7496,-3.0206,64.33,63,99,3.44,ES,1732491800
306,argo,37.6333,22.7333,44.1,32,1,3.51,GR,1732491800
307,rongelap,11.1635,166.8941,83.05,79,21,19.55,MH,1732491800
308,ban phan don,17.1427,102.9726,70.16,80,91,5.21,TH,1732491801
309,saint-pierre,-21.3393,55.4781,74.88,78,20,4.61,RE,1732491801
310,banff,51.1762,-115.5698,14.38,73,97,1.14,CA,1732491801
311,vila velha,-20.3297,-40.2925,68.95,91,40,4.61,BR,1732491801
312,mhangura,-16.8939,30.1683,67.15,74,100,4.79,ZW,1732491801
313,yongchuan,29.3514,105.8947,49.21,77,100,3.38,CN,1732491801
314,enewetak,11.3474,162.3373,82.94,80,40,21.59,MH,1732491801
315,paita,-5.0892,-81.1144,67.59,84,73,16.26,PE,1732491801
316,xai-xai,-25.0519,33.6442,69.39,95,9,4.59,MZ,1732491801
317,port sudan,19.6175,37.2164,79.88,70,93,10.27,SD,1732491801
318,ebebiyin,2.1511,11.3353,68.88,99,39,2.24,GQ,1732491802
319,mejit,10.2753,170.8646,82.18,81,67,17.74,MH,1732491802
320,linxia chengguanzhen,35.6003,103.2064,13.26,91,90,4.9,CN,1732491802
321,garissa,-0.4536,39.6401,77.32,82,76,8.05,KE,1732491802
322,nguigmi,14.2495,13.1092,70.2,27,2,12.19,NE,1732491802
323,iskateley,67.6803,53.1512,26.98,91,96,25.59,RU,1732491802
324,aras-asan,8.8908,126.3033,79.43,89,96,6.51,PH,1732491802
325,arica,-18.475,-70.3042,68.23,68,100,8.05,CL,1732491619
326,irtyshsk,53.3333,75.4572,11.59,92,32,3.67,KZ,1732491803
327,nadi,-17.8,177.4167,84.2,70,75,8.05,FJ,1732491803
328,choibalsan,48.0667,114.5,9.95,51,100,14.0,MN,1732491803
329,antofagasta,-23.65,-70.4,63.68,87,100,5.39,CL,1732491637
330,krasnoslobodsk,48.7072,44.5714,40.82,87,100,8.95,RU,1732491803
331,tamanrasset,22.785,5.5228,57.11,28,0,8.05,DZ,1732491803
332,san luis de la loma,17.2706,-100.8939,79.07,82,34,3.8,MX,1732491803
333,ciudad miguel aleman,26.35,-99.1,79.59,40,3,12.48,MX,1732491803
334,maridi,4.9158,29.4742,69.08,89,40,3.62,SS,1732491803
335,rio verde de mato grosso,-18.9181,-54.8442,82.6,43,0,6.85,BR,1732491669
336,el granada,37.5027,-122.4694,63.09,66,75,5.75,US,1732491804
337,benghazi,32.1167,20.0667,60.6,58,0,13.58,LY,1732491804
338,lompoc,34.6391,-120.4579,64.81,57,0,9.22,US,1732491804
339,genhe,50.7833,121.5167,16.16,95,100,0.09,CN,1732491804
340,ocean shores,46.9737,-124.1563,47.01,95,100,8.05,US,1732491733
341,leeton,-34.5667,146.4,85.08,27,97,8.77,AU,1732491804
342,nurota,40.5614,65.6886,46.8,59,4,2.89,UZ,1732491804
343,abong mbang,3.9833,13.1833,67.69,53,12,2.35,CM,1732491804
344,tual,-5.6667,132.75,83.71,70,87,2.24,ID,1732491804
345,urzhar,47.093,81.6294,24.49,74,13,6.58,KZ,1732491804
346,mishelevka,52.8575,103.1719,11.19,94,100,3.29,RU,1732491804
347,portland,45.5234,-122.6762,46.62,94,100,6.91,US,1732491661
348,popondetta,-8.7537,148.2534,89.08,57,81,2.19,PG,1732491805
349,vadso,70.0744,29.7487,28.56,80,20,17.27,NO,1732491805
350,saldanha,-33.0117,17.9442,59.05,91,94,9.46,ZA,1732491805
351,vienne,48.2085,16.3721,39.94,81,85,4.0,AT,1732491625
352,langxiang,46.95,128.8833,26.38,46,84,1.3,CN,1732491805
353,crane,31.3974,-102.3501,72.64,14,8,11.3,US,1732491805
354,constitucion,-35.3333,-72.4167,57.0,72,3,11.1,CL,1732491805
355,mosjoen,65.836,13.1908,34.32,93,100,0.0,NO,1732491805
356,ierapetra,35.01,25.7353,55.15,50,0,18.01,GR,1732491805
357,kayangel,8.0823,134.7173,83.98,79,66,21.18,PW,1732491805
358,makurazaki,31.2667,130.3167,56.77,73,51,7.09,JP,1732491805
359,virginia beach,36.8529,-75.978,56.01,66,40,8.05,US,1732491758
360,northam,51.0333,-4.2167,50.61,90,100,22.79,GB,1732491806
361,undurkhaan,47.3194,110.6556,5.65,62,100,10.13,MN,1732491806
362,aioun,16.6614,-9.6149,77.58,14,0,10.51,MR,1732491806
363,miles city,46.4083,-105.8406,22.17,63,0,9.22,US,1732491806
364,letterkenny,54.95,-7.7333,44.49,84,80,20.98,IE,1732491806
365,bandarbeyla,9.4942,50.8122,77.59,85,60,13.09,SO,1732491806
366,grande prairie,55.1667,-118.8027,-0.22,85,75,0.0,CA,1732491766
367,el calafate,-50.3408,-72.2768,51.58,53,100,6.44,AR,1732491806
368,kingscliff,-28.2667,153.5667,78.94,61,55,10.36,AU,1732491806
369,mizhhirya,48.5246,23.5056,33.87,82,100,3.53,UA,1732491807
370,wytheville,36.9484,-81.0848,45.48,67,63,4.85,US,1732491807
371,saint-philippe,-21.3585,55.7679,75.04,84,44,9.86,RE,1732491807
372,nantucket,41.2835,-70.0995,46.51,49,0,19.57,US,1732491692
373,quellon,-43.1167,-73.6167,53.53,76,77,8.01,CL,1732491807
374,beloyarskiy,63.7119,66.6722,34.25,87,80,12.75,RU,1732491807
375,altinekin,38.3078,32.8686,19.94,95,2,10.65,TR,1732491807
376,harper,4.375,-7.7169,78.94,85,8,6.17,LR,1732491807
377,yuzhno-kurilsk,44.0306,145.8556,36.36,100,100,13.47,RU,1732491807
378,bangjun,39.9911,117.2628,41.04,93,100,3.69,CN,1732491808
379,fisterra,42.9049,-9.2629,56.75,71,100,9.44,ES,1732491808
380,sibi,29.5448,67.8764,67.17,26,0,3.38,PK,1732491808
381,beitbridge,-22.2167,30.0,77.76,60,88,7.11,ZW,1732491808
382,izumi,34.4833,135.4333,51.55,78,20,8.05,JP,1732491808
383,mil'kovo,55.6078,37.7956,27.91,95,12,3.53,RU,1732491808
384,aibak,36.2647,68.0155,48.58,61,13,2.06,AF,1732491808
385,nova vicosa,-17.8919,-39.3719,74.7,71,94,12.82,BR,1732491808
386,el haouaria,37.05,11.0144,64.42,80,45,15.17,TN,1732491808
387,placetas,22.3119,-79.6533,64.72,92,73,6.53,CU,1732491808
388,huilong,31.8111,121.655,58.42,81,100,7.87,CN,1732491808
389,borba,-4.3878,-59.5939,81.46,67,65,1.72,BR,1732491809
390,guatrache,-37.6678,-63.5302,73.65,23,7,10.36,AR,1732491809
391,swan hill,-35.3378,143.5544,66.43,95,100,0.56,AU,1732491809
392,hasaki,35.7333,140.8333,55.04,51,37,18.79,JP,1732491809
393,alice springs,-23.7,133.8833,74.75,73,100,9.22,AU,1732491809
394,rabaul,-4.1967,152.1721,83.41,72,54,2.51,PG,1732491809
395,ust'-barguzin,53.45,108.9833,8.6,87,91,2.08,RU,1732491809
396,zaozersk,69.4005,32.4476,23.36,88,58,12.93,RU,1732491809
397,miri,4.4148,114.0089,77.14,100,40,0.0,MY,1732491739
398,lubango,-14.9172,13.4925,60.75,85,88,3.47,AO,1732491810
399,singkil,-7.9855,111.4161,80.38,82,100,3.31,ID,1732491810
400,lavra,41.2594,-8.7185,57.63,100,75,13.8,PT,1732491810
401,soma,39.1855,27.6094,35.22,80,3,5.53,TR,1732491810
402,brejinho,-6.1908,-35.3567,74.48,77,4,5.59,BR,1732491810
403,tionk essil,12.7856,-16.5217,75.29,63,3,5.14,SN,1732491810
404,kuala belait,4.5833,114.1833,79.25,90,97,5.3,BN,1732491810
405,cachoeira do sul,-30.0392,-52.8939,71.6,75,0,9.71,BR,1732491810
406,vilhena,-12.7406,-60.1458,77.22,83,75,5.75,BR,1732491784
407,clinton,42.587,-82.9199,44.29,79,100,5.75,US,1732491751
408,coxen hole,16.3244,-86.5366,74.48,88,100,4.61,HN,1732491738
409,mili,6.0815,171.735,83.7,75,85,16.55,MH,1732491811
410,faro,37.0194,-7.9322,68.18,88,20,9.22,PT,1732491811
411,castillos,-34.1667,-53.8333,66.67,85,0,11.25,UY,1732491811
412,puerto colombia,10.9878,-74.9547,78.89,82,69,5.86,CO,1732491811
413,bikenibeu village,1.3673,173.1241,85.96,74,20,12.66,KI,1732491811
414,urangan,-25.3,152.9,75.83,58,41,12.93,AU,1732491811
415,sayat,38.7839,63.8803,53.04,55,94,9.55,TM,1732491811
416,saint-joseph,-21.3667,55.6167,73.78,84,36,7.38,RE,1732491811
417,keren,15.7778,38.4581,69.87,69,86,1.57,ER,1732491811
418,mantua,45.1667,10.7833,44.06,85,100,1.99,IT,1732491811
419,phan thiet,10.9333,108.1,76.28,81,100,3.87,VN,1732491811
420,dakhla,23.6848,-15.958,68.02,94,75,0.0,EH,1732491812
421,desterro,-7.2906,-37.0939,80.4,51,47,10.09,BR,1732491812
422,kartuzy,54.3342,18.1974,45.59,81,0,8.05,PL,1732491812
423,al muwayh,22.4333,41.7583,66.79,80,3,9.46,SA,1732491812
424,sisimiut,66.9395,-53.6735,29.57,89,100,12.5,GL,1732491812
425,khovd,48.0056,91.6419,15.01,76,100,1.48,MN,1732491812
426,walvis bay,-22.9575,14.5053,61.75,88,13,4.61,,1732491812
427,kiruna,67.8557,20.2251,20.32,93,100,6.91,SE,1732491812
428,ribeira brava,32.65,-17.0667,67.71,74,11,7.45,PT,1732491813
429,miyaly,48.8844,53.7836,31.77,64,0,8.93,KZ,1732491813
430,jaisalmer,26.9147,70.9181,70.63,32,0,6.02,IN,1732491813
431,severo-yeniseyskiy,60.3725,93.0408,8.29,93,97,4.45,RU,1732491813
432,dogondoutchi,13.6393,4.0287,75.16,17,3,9.93,NE,1732491813
433,moranbah,-22.0016,148.0466,82.99,41,0,14.58,AU,1732491813
434,la libertad,-2.2333,-80.9,73.06,83,75,10.51,EC,1732491813
435,changuinola,9.4333,-82.5167,71.94,87,100,8.01,PA,1732491813
436,krutinka,56.0055,71.5113,18.43,82,84,7.11,RU,1732491813
437,haiku-pauwela,20.9219,-156.3051,78.22,73,20,9.22,US,1732491813
438,aldinga beach,-35.2793,138.4604,75.07,62,85,2.95,AU,1732491813
439,bandar-e lengeh,26.5579,54.8807,76.69,54,14,4.97,IR,1732491814
440,bamboo flat,11.7,92.7167,82.49,83,40,8.05,IN,1732491814
441,urucara,-2.5364,-57.76,85.57,50,93,2.28,BR,1732491814
442,chinde,26.8212,87.7095,58.35,68,21,5.44,NP,1732491814
443,marina di pisa-tirrenia-calambrone,43.6272,10.292,49.01,100,40,4.61,IT,1732491814
444,kenora,49.8167,-94.4337,25.77,80,100,6.91,CA,1732491814
445,kholmskiy,44.8469,38.385,32.85,99,100,10.31,RU,1732491814
446,radeburg,51.2152,13.7281,50.85,58,0,13.8,DE,1732491814
447,tanumah,27.1,44.1333,70.3,55,100,14.85,SA,1732491814
448,howrah,22.5892,88.3103,64.4,88,20,3.44,IN,1732491815
449,mgandu,-5.95,34.1333,62.96,92,100,2.66,TZ,1732491815
450,mata-utu,-13.2816,-176.1745,82.44,76,66,11.01,WF,1732491815
451,port isabel,26.0734,-97.2086,78.84,61,0,16.11,US,1732491815
452,zhaozhou,45.6833,125.3167,34.38,87,100,8.57,CN,1732491815
453,carbonear,47.7332,-53.2148,45.14,98,100,12.84,CA,1732491815
454,paranaiba,-19.6772,-51.1908,78.67,55,73,6.51,BR,1732491815
455,magadan,59.5667,150.8,11.62,59,70,11.18,RU,1732491815
456,khandyga,62.6667,135.6,-21.28,98,42,1.66,RU,1732491815
457,porto novo,6.4965,2.6036,78.49,86,44,3.56,BJ,1732491815
458,cockburn town,21.4612,-71.1419,78.76,83,75,17.27,TC,1732491731
459,kemin,42.7846,75.6892,36.03,40,0,11.61,KG,1732491816
460,kailua-kona,19.6406,-155.9956,79.56,74,100,8.05,US,1732491816
461,kamina,-8.7386,24.9906,62.28,98,90,2.37,CD,1732491816
462,saint-francois,46.4154,3.9054,60.24,55,0,27.63,FR,1732491816
463,kathmandu,27.7167,85.3167,50.22,93,20,2.3,NP,1732491816
464,nagqu,31.5,92.0,8.74,17,46,1.12,CN,1732491816
465,duba,27.3513,35.6901,70.38,63,0,19.35,SA,1732491816
466,whangarei,-35.7317,174.3239,71.94,35,43,1.86,NZ,1732491816
467,antsiranana,-12.2787,49.2917,77.4,83,14,9.78,MG,1732491816
468,rosarito,32.3333,-117.0333,63.52,72,98,8.79,MX,1732491816
469,ahlat,38.7518,42.4814,40.86,84,98,13.29,TR,1732491816
470,kondopoga,62.2057,34.2614,32.36,92,42,9.44,RU,1732491816
471,page,36.9147,-111.4558,56.98,41,0,18.99,US,1732491817
472,tolanaro,-25.0319,46.9987,77.07,88,40,6.91,MG,1732491817
473,scottburgh,-30.2867,30.7532,73.42,94,67,14.97,ZA,1732491817
474,dabola,10.75,-11.1167,70.14,32,2,1.61,GN,1732491817
475,lorengau,-2.0226,147.2712,83.88,77,95,3.31,PG,1732491817
476,birobidzhan,48.8,132.95,20.64,67,64,1.3,RU,1732491817
477,inari,68.906,27.0288,25.79,77,99,10.87,FI,1732491817
478,tan-tan,28.438,-11.1032,70.36,58,100,3.6,MA,1732491750
479,sol'tsy,58.1239,30.3238,31.06,77,73,12.37,RU,1732491817
480,yambio,4.5721,28.3955,70.18,86,61,2.37,SS,1732491817
481,ketchikan,55.3422,-131.6461,37.38,41,0,5.75,US,1732491818
482,hillsborough,37.5741,-122.3794,62.46,66,75,5.99,US,1732491653
483,tofol,5.3248,163.0078,83.98,84,75,3.44,FM,1732491818
484,cape coast,5.1053,-1.2466,79.5,86,14,7.07,GH,1732491818
485,okha,53.5739,142.9478,24.57,78,66,11.41,RU,1732491818
486,chibougamau,49.9168,-74.3659,24.42,93,100,11.5,CA,1732491573
487,pariaman,-0.619,100.12,75.25,91,100,3.8,ID,1732491818
488,marsh harbour,26.5412,-77.0636,72.88,58,13,7.31,BS,1732491818
489,escarcega,18.6089,-90.7454,68.25,75,0,3.51,MX,1732491818
490,pak phanang,8.3511,100.202,79.57,85,100,10.11,TH,1732491818
491,keflavik,64.0049,-22.5624,28.83,64,75,21.85,IS,1732491799
492,kushiro,42.975,144.3747,34.75,69,20,1.14,JP,1732491819
493,mujiayingzi,42.1167,118.7833,33.33,87,100,5.39,CN,1732491819
494,kogalym,62.2654,74.4791,27.86,77,61,20.31,RU,1732491819
495,nuku'alofa,-21.1333,-175.2,84.54,74,20,11.5,TO,1732491819
496,zaragoza,41.6561,-0.8773,59.45,72,40,16.11,ES,1732491540
497,plettenberg bay,-34.0527,23.3716,65.53,96,65,5.84,ZA,1732491819
498,shawnee,39.05,-95.7669,61.18,67,0,8.05,US,1732491762
499,hutang,31.5333,119.4833,57.38,86,100,5.32,CN,1732491819
500,abhar,36.1468,49.218,42.69,49,7,1.63,IR,1732491819
501,itoman,26.1247,127.6694,71.62,71,20,5.75,JP,1732491819
502,urengoy,65.9667,78.3667,34.25,92,100,20.29,RU,1732491819
503,port pirie,-33.1833,138.0167,75.83,65,83,4.14,AU,1732491819
504,muroto-misakicho,33.2833,134.15,55.36,60,45,8.97,JP,1732491820
505,weno,7.4515,151.8468,87.75,79,75,6.91,FM,1732491820
506,peterhead,57.5058,-1.7981,48.7,74,11,32.53,GB,1732491820
507,port-vila,-17.7338,168.3219,82.0,78,75,10.36,VU,1732491820
508,ola,59.5833,151.2833,8.29,66,66,12.3,RU,1732491820
509,gazli,40.1333,63.45,47.17,52,4,9.53,UZ,1732491820
510,lionel town,17.8101,-77.2406,74.84,94,100,9.33,JM,1732491820
511,mbulu,-3.85,35.5333,60.44,89,99,1.21,TZ,1732491820
512,olinda,-8.0089,-34.8553,80.33,78,40,6.91,BR,1732491820
513,kill devil hills,36.0307,-75.676,53.62,71,0,5.75,US,1732491820
514,skhirate,33.8498,-7.0404,73.31,61,64,6.22,MA,1732491820
515,grand-lahou,5.1367,-5.0242,78.98,85,12,6.44,CI,1732491820
516,abu jibeha,11.4562,31.2285,73.6,19,1,7.14,SD,1732491821
517,villa del totoral,-30.8167,-63.7167,83.23,61,85,2.15,AR,1732491821
518,heroica guaymas,27.9333,-110.9,79.97,28,40,6.91,MX,1732491537
519,hateg,45.6167,22.95,38.08,87,91,4.05,RO,1732491821
520,elliot lake,46.3834,-82.6331,27.68,70,3,2.39,CA,1732491821
521,dolores,-36.3132,-57.6792,66.33,95,63,12.12,AR,1732491574
522,greymouth,-42.4667,171.2,58.14,80,100,4.41,NZ,1732491821
523,johnstown,40.3267,-78.922,41.34,88,100,9.22,US,1732491821
524,karabar,-35.3753,149.2308,80.89,47,100,4.61,AU,1732491821
525,trincomalee,8.5711,81.2335,77.83,84,100,9.55,LK,1732491821
526,pemangkat,1.1667,108.9667,79.39,86,100,4.74,ID,1732491821
527,tres arroyos,-38.3739,-60.2798,64.11,95,83,2.71,AR,1732491726
528,cadale,2.7603,46.3222,80.42,80,70,11.21,SO,1732491822
529,cill airne,52.05,-9.5167,45.43,77,64,12.88,IE,1732491822
530,qarazhal,48.0078,70.7903,25.45,76,0,11.32,KZ,1732491822
531,sola,-13.8833,167.55,82.47,71,98,10.49,VU,1732491822
532,berbera,10.4396,45.0143,79.59,67,0,4.05,SO,1732491822
533,bim son,20.0781,105.8603,71.64,89,98,5.21,VN,1732491822
534,lander,42.833,-108.7307,36.41,51,0,5.75,US,1732491822
535,tchintabaraden,15.8969,5.7985,71.06,17,8,11.05,NE,1732491822
536,sur,22.5667,59.5289,76.23,61,0,9.01,OM,1732491817
537,solleftea,63.1667,17.2667,37.26,97,100,8.34,SE,1732491822
538,borger,52.9233,6.7931,60.91,72,100,25.26,NL,1732491822
539,saint croix,17.7397,-64.7388,78.96,88,98,5.99,VI,1732491609
540,saint-amand-montrond,46.75,2.5,59.29,54,84,21.54,FR,1732491823
541,kincardine,56.0667,-3.7167,50.27,77,88,21.52,GB,1732491823
542,saint ann's bay,18.4358,-77.201,78.46,85,100,16.46,JM,1732491823
543,freeport,40.6576,-73.5832,50.99,60,100,10.36,US,1732491797
544,karratha,-20.7377,116.8463,85.14,44,73,9.98,AU,1732491823
545,birzebbuga,35.8258,14.5269,52.48,82,20,1.14,MT,1732491823
546,barra do bugres,-15.0725,-57.1811,76.39,91,99,4.23,BR,1732491823
547,san juan de miraflores,-12.1629,-76.9635,66.72,85,87,8.77,PE,1732491824
548,lycksele,64.5954,18.6735,33.67,93,100,13.8,SE,1732491679
549,barra de santo antonio,-9.4047,-35.5072,78.57,81,28,11.88,BR,1732491824
550,bahir dar,11.5936,37.3908,61.83,90,98,5.12,ET,1732491824
551,ronneby,56.21,15.276,50.5,93,75,14.97,SE,1732491824
552,jerantut,3.936,102.3626,74.46,98,100,1.83,MY,1732491824
553,kolwezi,-10.7148,25.4667,62.38,97,100,5.53,CD,1732491824
554,valle de la pascua,9.2155,-66.0073,80.51,73,99,5.79,VE,1732491824
